{
    "cities": [
        {
            "name": "Jelenia Góra",
            "id": "JeleniaGora",
            "longitude": 15.736389,
            "latitude": 50.903889
        },
        {
            "name": "Legnica",
            "id": "Legnica",
            "longitude": 16.156389,
            "latitude": 51.205278
        },
        {
            "name": "Wałbrzych",
            "id": "Walbrzych",
            "longitude": 16.273889,
            "latitude": 50.770833
        },
        {
            "name": "Wrocław",
            "id": "Wroclaw",
            "longitude": 17.022222,
            "latitude": 51.11
        },
        {
            "name": "Bolesławiec",
            "id": "Boleslawiec",
            "longitude": 15.560833,
            "latitude": 51.263889
        },
        {
            "name": "Dzierżoniów",
            "id": "Dzierzoniow",
            "longitude": 16.651111,
            "latitude": 50.728056
        },
        {
            "name": "Góra",
            "id": "Gora",
            "longitude": 16.539444,
            "latitude": 51.668056
        },
        {
            "name": "Głogów",
            "id": "Glogow",
            "longitude": 16.080556,
            "latitude": 51.659167
        },
        {
            "name": "Jawor",
            "id": "Jawor",
            "longitude": 16.196944,
            "latitude": 51.048611
        },
        {
            "name": "Kamienna Góra",
            "id": "KamiennaGora",
            "longitude": 16.035556,
            "latitude": 50.784167
        },
        {
            "name": "Kłodzko",
            "id": "Klodzko",
            "longitude": 16.652778,
            "latitude": 50.437778
        },
        {
            "name": "Lubań",
            "id": "Luban",
            "longitude": 15.289167,
            "latitude": 51.118056
        },
        {
            "name": "Lubin",
            "id": "Lubin",
            "longitude": 16.209444,
            "latitude": 51.3975
        },
        {
            "name": "Lwówek śląski",
            "id": "LwowekSlaski",
            "longitude": 15.584722,
            "latitude": 51.110278
        },
        {
            "name": "Milicz",
            "id": "Milicz",
            "longitude": 17.271389,
            "latitude": 51.5275
        },
        {
            "name": "Oleśnica",
            "id": "Olesnica",
            "longitude": 17.383056,
            "latitude": 51.212778
        },
        {
            "name": "Oława",
            "id": "Olawa",
            "longitude": 17.2925,
            "latitude": 50.943889
        },
        {
            "name": "Polkowice",
            "id": "Polkowice",
            "longitude": 16.0675,
            "latitude": 51.501111
        },
        {
            "name": "Środa Śląska",
            "id": "SrodaSlaska",
            "longitude": 16.595,
            "latitude": 51.163889
        },
        {
            "name": "Strzelin",
            "id": "Strzelin",
            "longitude": 17.064722,
            "latitude": 50.780833
        },
        {
            "name": "Świdnica",
            "id": "Swidnica",
            "longitude": 16.491667,
            "latitude": 50.844444
        },
        {
            "name": "Trzebnica",
            "id": "Trzebnica",
            "longitude": 17.061389,
            "latitude": 51.305
        },
        {
            "name": "Wołów",
            "id": "Wolow",
            "longitude": 16.644444,
            "latitude": 51.336667
        },
        {
            "name": "Ząbkowice śląskie",
            "id": "ZabkowiceSlaskie",
            "longitude": 16.812742,
            "latitude": 50.591408
        },
        {
            "name": "Zgorzelec",
            "id": "Zgorzelec",
            "longitude": 15.008611,
            "latitude": 51.150278
        },
        {
            "name": "Złotoryja",
            "id": "Zlotoryja",
            "longitude": 15.919444,
            "latitude": 51.123889
        },
        {
            "name": "Bogatynia",
            "id": "Bogatynia",
            "longitude": 14.953889,
            "latitude": 50.9075
        },
        {
            "name": "Szklarska Poręba",
            "id": "SzklarskaPoreba",
            "longitude": 15.521111,
            "latitude": 50.826667
        },
        {
            "name": "Karpacz",
            "id": "Karpacz",
            "longitude": 15.757222,
            "latitude": 50.778333
        },
        {
            "name": "Bolków",
            "id": "Bolkow",
            "longitude": 16.101944,
            "latitude": 50.921944
        },
        {
            "name": "Świebodzice",
            "id": "Swiebodzice",
            "longitude": 16.318056,
            "latitude": 50.859444
        },
        {
            "name": "Bielawa",
            "id": "Bielawa",
            "longitude": 16.611111,
            "latitude": 50.683056
        },
        {
            "name": "Polanica-Zdrój",
            "id": "PolanicaZdroj",
            "longitude": 16.511389,
            "latitude": 50.405833
        },
        {
            "name": "Duszniki-Zdrój",
            "id": "DusznikiZdroj",
            "longitude": 16.390556,
            "latitude": 50.404167
        },
        {
            "name": "Kudowa-Zdrój",
            "id": "KudowaZdroj",
            "longitude": 16.239444,
            "latitude": 50.438333
        },
        {
            "name": "Sobótka",
            "id": "Sobotka",
            "longitude": 16.744444,
            "latitude": 50.898611
        },
        {
            "name": "Kąty Wrocławskie",
            "id": "KatyWroclawskie",
            "longitude": 16.7675,
            "latitude": 51.030833
        },
        {
            "name": "Bielany Wrocławskie",
            "id": "BielanyWroclawskie",
            "longitude": 16.968889,
            "latitude": 51.039444
        },
        {
            "name": "Jelcz-Laskowice",
            "id": "JelczLaskowice",
            "longitude": 17.341111,
            "latitude": 51.035278
        },
        {
            "name": "Bierutów",
            "id": "Bierutow",
            "longitude": 17.5425,
            "latitude": 51.123611
        },
        {
            "name": "Syców",
            "id": "Sycow",
            "longitude": 17.723611,
            "latitude": 51.31
        },
        {
            "name": "Oborniki Śląskie",
            "id": "ObornikiSlaskie",
            "longitude": 16.901667,
            "latitude": 51.298611
        },
        {
            "name": "Brzeg Dolny",
            "id": "BrzegDolny",
            "longitude": 16.720833,
            "latitude": 51.270833
        },
        {
            "name": "Nowogrodziec",
            "id": "Nowogrodziec",
            "longitude": 15.385556,
            "latitude": 51.201111
        },
        {
            "name": "Gryfów Śląski",
            "id": "GryfowSlaski",
            "longitude": 15.419167,
            "latitude": 51.027222
        },
        {
            "name": "Chojnów",
            "id": "Chojnow",
            "longitude": 15.930556,
            "latitude": 51.271111
        },
        {
            "name": "Lubawka",
            "id": "Lubawka",
            "longitude": 16.001944,
            "latitude": 50.703333
        },
        {
            "name": "Międzylesie",
            "id": "Miedzylesie",
            "longitude": 16.666389,
            "latitude": 50.149444
        },
        {
            "name": "Lądek-Zdrój",
            "id": "LadekZdroj",
            "longitude": 16.879444,
            "latitude": 50.343056
        },
        {
            "name": "Żmigród",
            "id": "Zmigrod",
            "longitude": 16.905,
            "latitude": 51.470278
        },
        {
            "name": "Aleksandrów Kujawski",
            "id": "AleksandrowKujawski",
            "longitude": 18.6902,
            "latitude": 52.8789
        },
        {
            "name": "Barcin",
            "id": "Barcin",
            "longitude": 17.9732,
            "latitude": 52.9168
        },
        {
            "name": "Brodnica",
            "id": "Brodnica",
            "longitude": 19.3961,
            "latitude": 53.2593
        },
        {
            "name": "Bydgoszcz",
            "id": "Bydgoszcz",
            "longitude": 18.0076,
            "latitude": 53.1235
        },
        {
            "name": "Chełmno",
            "id": "Chelmno",
            "longitude": 18.4242,
            "latitude": 53.3498
        },
        {
            "name": "Chełmża",
            "id": "Chelmza",
            "longitude": 18.6025,
            "latitude": 53.1876
        },
        {
            "name": "Ciechocinek",
            "id": "Ciechocinek",
            "longitude": 18.7927,
            "latitude": 52.8766
        },
        {
            "name": "Gniewkowo",
            "id": "Gniewkowo",
            "longitude": 18.4069,
            "latitude": 52.8742
        },
        {
            "name": "Golub-Dobrzyń",
            "id": "Golub-Dobrzyn",
            "longitude": 19.0532,
            "latitude": 53.1108
        },
        {
            "name": "Grudziądz",
            "id": "Grudziadz",
            "longitude": 18.7534,
            "latitude": 53.4848
        },
        {
            "name": "Inowrocław",
            "id": "Inowroclaw",
            "longitude": 18.263,
            "latitude": 52.7976
        },
        {
            "name": "Janikowo",
            "id": "Janikowo",
            "longitude": 18.0967,
            "latitude": 52.7466
        },
        {
            "name": "Koronowo",
            "id": "Koronowo",
            "longitude": 17.9375,
            "latitude": 53.3142
        },
        {
            "name": "Kruszwica",
            "id": "Kruszwica",
            "longitude": 18.3317,
            "latitude": 52.6766
        },
        {
            "name": "Lipno",
            "id": "Lipno",
            "longitude": 19.1792,
            "latitude": 52.8418
        },
        {
            "name": "Mogilno",
            "id": "Mogilno",
            "longitude": 17.9568,
            "latitude": 52.6586
        },
        {
            "name": "Nakło nad Notecią",
            "id": "NakloNadNotecia",
            "longitude": 17.6017,
            "latitude": 53.1422
        },
        {
            "name": "Nowe",
            "id": "Nowe",
            "longitude": 18.7222,
            "latitude": 53.6486
        },
        {
            "name": "Radziejów",
            "id": "Radziejow",
            "longitude": 18.5297,
            "latitude": 52.6266
        },
        {
            "name": "Rypin",
            "id": "Rypin",
            "longitude": 19.4096,
            "latitude": 53.0653
        },
        {
            "name": "Sępólno Krajeńskie",
            "id": "SepolnoKrajenskie",
            "longitude": 17.5311,
            "latitude": 53.4512
        },
        {
            "name": "Solec Kujawski",
            "id": "SolecKujawski",
            "longitude": 18.2268,
            "latitude": 53.0865
        },
        {
            "name": "Szubin",
            "id": "Szubin",
            "longitude": 17.7379,
            "latitude": 53.0083
        },
        {
            "name": "Świecie",
            "id": "Swiecie",
            "longitude": 18.4473,
            "latitude": 53.4081
        },
        {
            "name": "Toruń",
            "id": "Torun",
            "longitude": 18.5984,
            "latitude": 53.0138
        },
        {
            "name": "Tuchola",
            "id": "Tuchola",
            "longitude": 17.8598,
            "latitude": 53.5876
        },
        {
            "name": "Wąbrzeźno",
            "id": "Wabrzezno",
            "longitude": 18.9479,
            "latitude": 53.2788
        },
        {
            "name": "Włocławek",
            "id": "Wloclawek",
            "longitude": 19.0679,
            "latitude": 52.6486
        },
        {
            "name": "Więcbork",
            "id": "Wiecbork",
            "longitude": 17.4883,
            "latitude": 53.3548
        },
        {
            "name": "Żnin",
            "id": "Znin",
            "longitude": 17.7198,
            "latitude": 52.8498
        },
        {
            "name": "Łódź",
            "id": "Lodz",
            "longitude": 19.47395,
            "latitude": 51.77058
        },
        {
            "name": "Piotrków Trybunalski",
            "id": "PiotrkowTrybunalski",
            "longitude": 19.70321,
            "latitude": 51.40547
        },
        {
            "name": "Pabianice",
            "id": "Pabianice",
            "longitude": 19.35473,
            "latitude": 51.66446
        },
        {
            "name": "Tomaszów Mazowiecki",
            "id": "TomaszowMazowiecki",
            "longitude": 20.00855,
            "latitude": 51.53131
        },
        {
            "name": "Zgierz",
            "id": "Zgierz",
            "longitude": 19.40623,
            "latitude": 51.85561
        },
        {
            "name": "Bełchatów",
            "id": "Belchatow",
            "longitude": 19.35671,
            "latitude": 51.36883
        },
        {
            "name": "Skierniewice",
            "id": "Skierniewice",
            "longitude": 20.158379,
            "latitude": 51.95485
        },
        {
            "name": "Radomsko",
            "id": "Radomsko",
            "longitude": 19.44477,
            "latitude": 51.06713
        },
        {
            "name": "Kutno",
            "id": "Kutno",
            "longitude": 19.36409,
            "latitude": 52.23064
        },
        {
            "name": "Sieradz",
            "id": "Sieradz",
            "longitude": 18.73023,
            "latitude": 51.59584
        },
        {
            "name": "Zduńska Wola",
            "id": "ZdunskaWola",
            "longitude": 18.93974,
            "latitude": 51.59915
        },
        {
            "name": "Łowicz",
            "id": "Lowicz",
            "longitude": 19.94525,
            "latitude": 52.10714
        },
        {
            "name": "Aleksandrów Łódzki",
            "id": "AleksandrowLodzki",
            "longitude": 19.30384,
            "latitude": 51.81965
        },
        {
            "name": "Wieluń",
            "id": "Wielun",
            "longitude": 18.56964,
            "latitude": 51.22097
        },
        {
            "name": "Opoczno",
            "id": "Opoczno",
            "longitude": 20.27827,
            "latitude": 51.37569
        },
        {
            "name": "Konstantynów Łódzki",
            "id": "KonstantynowLodzki",
            "longitude": 19.32564,
            "latitude": 51.74776
        },
        {
            "name": "Ozorków",
            "id": "Ozorkow",
            "longitude": 19.29139,
            "latitude": 51.96336
        },
        {
            "name": "Łask",
            "id": "Lask",
            "longitude": 19.13278,
            "latitude": 51.59056
        },
        {
            "name": "Rawa Mazowiecka",
            "id": "RawaMazowiecka",
            "longitude": 20.25493,
            "latitude": 51.76437
        },
        {
            "name": "Głowno",
            "id": "Glowno",
            "longitude": 19.71565,
            "latitude": 51.96463
        },
        {
            "name": "Łęczyca",
            "id": "Leczyca",
            "longitude": 19.19972,
            "latitude": 52.05959
        },
        {
            "name": "Koluszki",
            "id": "Koluszki",
            "longitude": 19.81994,
            "latitude": 51.73872
        },
        {
            "name": "Brzeziny",
            "id": "Brzeziny",
            "longitude": 19.75144,
            "latitude": 51.80023
        },
        {
            "name": "Wieruszów",
            "id": "Wieruszow",
            "longitude": 18.15547,
            "latitude": 51.29488
        },
        {
            "name": "Żychlin",
            "id": "Zychlin",
            "longitude": 19.62613,
            "latitude": 52.24404
        },
        {
            "name": "Tuszyn",
            "id": "Tuszyn",
            "longitude": 19.53009,
            "latitude": 51.60949
        },
        {
            "name": "Zelów",
            "id": "Zelow",
            "longitude": 19.21972,
            "latitude": 51.46452
        },
        {
            "name": "Poddębice",
            "id": "Poddebice",
            "longitude": 18.9573,
            "latitude": 51.89344
        },
        {
            "name": "Pajęczno",
            "id": "Pajeczno",
            "longitude": 18.99612,
            "latitude": 51.14449
        },
        {
            "name": "Sulejów",
            "id": "Sulejow",
            "longitude": 19.88538,
            "latitude": 51.35436
        },
        {
            "name": "Działoszyn",
            "id": "Dzialoszyn",
            "longitude": 18.86524,
            "latitude": 51.11699
        },
        {
            "name": "Krośniewice",
            "id": "Krosniewice",
            "longitude": 19.17037,
            "latitude": 52.25592
        },
        {
            "name": "Drzewica",
            "id": "Drzewica",
            "longitude": 20.47701,
            "latitude": 51.45085
        },
        {
            "name": "Rzgow",
            "id": "Rzgow",
            "longitude": 19.49181,
            "latitude": 51.66345
        },
        {
            "name": "Złoczew",
            "id": "Zloczew",
            "longitude": 18.60363,
            "latitude": 51.41719
        },
        {
            "name": "Stryków",
            "id": "Strykow",
            "longitude": 19.60536,
            "latitude": 51.90224
        },
        {
            "name": "Przedbórz",
            "id": "Przedborz",
            "longitude": 19.87384,
            "latitude": 51.08789
        },
        {
            "name": "Biała Rawska",
            "id": "BialaRawska",
            "longitude": 20.47259,
            "latitude": 51.80779
        },
        {
            "name": "Warta",
            "id": "Warta",
            "longitude": 18.62483,
            "latitude": 51.71049
        },
        {
            "name": "Uniejów",
            "id": "Uniejow",
            "longitude": 18.79308,
            "latitude": 51.97428
        },
        {
            "name": "Zielona Góra",
            "id": "ZielonaGora",
            "longitude": 15.5059914,
            "latitude": 51.93574
        },
        {
            "name": "Gorzów Wielkopolski",
            "id": "GorzowWielkopolski",
            "longitude": 15.2409392,
            "latitude": 52.7285
        },
        {
            "name": "Nowa Sól",
            "id": "NowaSol",
            "longitude": 15.7161972,
            "latitude": 51.80594
        },
        {
            "name": "Żary",
            "id": "Zary",
            "longitude": 15.1469334,
            "latitude": 51.63992
        },
        {
            "name": "Świebodzin",
            "id": "Swiebodzin",
            "longitude": 15.533647,
            "latitude": 52.24736
        },
        {
            "name": "Żagań",
            "id": "Zagan",
            "longitude": 15.3148134,
            "latitude": 51.61748
        },
        {
            "name": "Sulechów",
            "id": "Sulechow",
            "longitude": 15.6204484,
            "latitude": 52.07858
        },
        {
            "name": "Kostrzyn nad Odrą",
            "id": "KostrzynNadOdra",
            "longitude": 14.6497717,
            "latitude": 52.58744
        },
        {
            "name": "Międzyrzecz",
            "id": "Miedzyrzecz",
            "longitude": 15.5779483,
            "latitude": 52.44448
        },
        {
            "name": "Lubsko",
            "id": "Lubsko",
            "longitude": 14.9726915,
            "latitude": 51.7884
        },
        {
            "name": "Słubice",
            "id": "Slubice",
            "longitude": 14.5624765,
            "latitude": 52.34896
        },
        {
            "name": "Drezdenko",
            "id": "Drezdenko",
            "longitude": 15.8311771,
            "latitude": 52.836
        },
        {
            "name": "Strzelce Krajeńskie",
            "id": "StrzelceKrajenskie",
            "longitude": 15.5298124,
            "latitude": 52.87698
        },
        {
            "name": "Krosno Odrzańskie",
            "id": "KrosnoOdrzanskie",
            "longitude": 15.1132645,
            "latitude": 52.05278
        },
        {
            "name": "Gubin",
            "id": "Gubin",
            "longitude": 14.7274514,
            "latitude": 51.94906
        },
        {
            "name": "Bytom Odrzański",
            "id": "BytomOdrzanski",
            "longitude": 15.8221716,
            "latitude": 51.73118
        },
        {
            "name": "Szprotawa",
            "id": "Szprotawa",
            "longitude": 15.5366682,
            "latitude": 51.5669
        },
        {
            "name": "Kożuchów",
            "id": "Kozuchow",
            "longitude": 15.596366,
            "latitude": 51.74348
        },
        {
            "name": "Wschowa",
            "id": "Wschowa",
            "longitude": 16.3155568,
            "latitude": 51.80166
        },
        {
            "name": "Rzepin",
            "id": "Rzepin",
            "longitude": 14.8322348,
            "latitude": 52.34642
        },
        {
            "name": "Skwierzyna",
            "id": "Skwierzyna",
            "longitude": 15.5064272,
            "latitude": 52.59902
        },
        {
            "name": "Dobiegniew",
            "id": "Dobiegniew",
            "longitude": 15.753236,
            "latitude": 52.97018
        },
        {
            "name": "Przytoczna",
            "id": "Przytoczna",
            "longitude": 15.68207,
            "latitude": 52.57617
        },
        {
            "name": "Iłowa",
            "id": "Ilowa",
            "longitude": 15.1996592,
            "latitude": 51.50002
        },
        {
            "name": "Sława",
            "id": "Slawa",
            "longitude": 16.0718564,
            "latitude": 51.87594
        },
        {
            "name": "Świecko",
            "id": "Swiecko",
            "longitude": 14.5921365,
            "latitude": 52.30336
        },
        {
            "name": "Olszyna",
            "id": "Olszyna",
            "longitude": 14.764722,
            "latitude": 51.655
        },
        {
            "name": "Babimost",
            "id": "Babimost",
            "longitude": 15.8274587,
            "latitude": 52.1647
        },
        {
            "name": "Kargowa",
            "id": "Kargowa",
            "longitude": 15.8652818,
            "latitude": 52.072
        },
        {
            "name": "Nowe Miasteczko",
            "id": "NoweMiasteczko",
            "longitude": 15.7349345,
            "latitude": 51.69098
        },
        {
            "name": "Jordanowo",
            "id": "Jordanowo",
            "longitude": 15.54615,
            "latitude": 52.32117
        },
        {
            "name": "Olkusz",
            "id": "Olkusz",
            "longitude": 19.5596307,
            "latitude": 50.2788158
        },
        {
            "name": "Wolbrom",
            "id": "Wolbrom",
            "longitude": 19.7598844,
            "latitude": 50.3848386
        },
        {
            "name": "Miechów",
            "id": "Miechow",
            "longitude": 20.0276912,
            "latitude": 50.3566016
        },
        {
            "name": "Kraków",
            "id": "Krakow",
            "longitude": 19.9368564,
            "latitude": 50.0619474
        },
        {
            "name": "Chrzanów",
            "id": "Chrzanow",
            "longitude": 19.4028502,
            "latitude": 50.1411926
        },
        {
            "name": "Oświęcim",
            "id": "Oswiecim",
            "longitude": 19.2214053,
            "latitude": 50.0382443
        },
        {
            "name": "Skawina",
            "id": "Skawina",
            "longitude": 19.8265702,
            "latitude": 49.9747508
        },
        {
            "name": "Zator",
            "id": "Zator",
            "longitude": 19.4376782,
            "latitude": 49.9963053
        },
        {
            "name": "Wadowice",
            "id": "Wadowice",
            "longitude": 19.4925345,
            "latitude": 49.8834484
        },
        {
            "name": "Rabka-zdrój",
            "id": "Rabka-Zdroj",
            "longitude": 19.9622575,
            "latitude": 49.6076663
        },
        {
            "name": "Jabłonka",
            "id": "Jablonka",
            "longitude": 19.6948676,
            "latitude": 49.4803042
        },
        {
            "name": "Nowy Targ",
            "id": "NowyTarg",
            "longitude": 20.030541,
            "latitude": 49.4818229
        },
        {
            "name": "Zakopane",
            "id": "Zakopane",
            "longitude": 19.9504753,
            "latitude": 49.2969114
        },
        {
            "name": "Limanowa",
            "id": "Limanowa",
            "longitude": 20.4217266,
            "latitude": 49.7061713
        },
        {
            "name": "Nowy Sącz",
            "id": "NowySacz",
            "longitude": 20.691346,
            "latitude": 49.6249173
        },
        {
            "name": "Piwniczna-Zdrój",
            "id": "Piwniczna-Zdroj",
            "longitude": 20.7142303,
            "latitude": 49.4406462
        },
        {
            "name": "Krynica-Zdrój",
            "id": "Krynica-Zdroj",
            "longitude": 20.9594176,
            "latitude": 49.4206138
        },
        {
            "name": "Grybów",
            "id": "Grybow",
            "longitude": 20.9446455,
            "latitude": 49.6250919
        },
        {
            "name": "Gorlice",
            "id": "Gorlice",
            "longitude": 21.1593832,
            "latitude": 49.65829
        },
        {
            "name": "Tarnów",
            "id": "Tarnow",
            "longitude": 20.9880739,
            "latitude": 50.0123784
        },
        {
            "name": "Dąbrowa Tarnowska",
            "id": "DabrowaTarnowska",
            "longitude": 20.9850707,
            "latitude": 50.1743495
        },
        {
            "name": "Brzesko",
            "id": "Brzesko",
            "longitude": 20.6068496,
            "latitude": 49.9678396
        },
        {
            "name": "Bochnia",
            "id": "Bochnia",
            "longitude": 20.430541,
            "latitude": 49.9693563
        },
        {
            "name": "Gdów",
            "id": "Gdow",
            "longitude": 20.1996034,
            "latitude": 49.9085036
        },
        {
            "name": "Wieliczka",
            "id": "Wieliczka",
            "longitude": 20.0602114,
            "latitude": 49.9823773
        },
        {
            "name": "Proszowice",
            "id": "Proszowice",
            "longitude": 20.2917555,
            "latitude": 50.1926479
        },
        {
            "name": "Zakliczyn",
            "id": "Zakliczyn",
            "longitude": 20.8086652,
            "latitude": 49.8564352
        },
        {
            "name": "Koszyce",
            "id": "Koszyce",
            "longitude": 20.5756459,
            "latitude": 50.1669806
        },
        {
            "name": "Szczawnica",
            "id": "Szczawnica",
            "longitude": 20.4761439,
            "latitude": 49.4266299
        },
        {
            "name": "Sucha Beskidzka",
            "id": "SuchaBeskidzka",
            "longitude": 19.5905975,
            "latitude": 49.74079
        },
        {
            "name": "Mszana Dolna",
            "id": "MszanaDolna",
            "longitude": 20.0820073,
            "latitude": 49.6779756
        },
        {
            "name": "Jodłownik",
            "id": "Jodlownik",
            "longitude": 20.236106,
            "latitude": 49.7748791
        },
        {
            "name": "Kamienica",
            "id": "Kamienica",
            "longitude": 20.345254,
            "latitude": 49.574262
        },
        {
            "name": "Lipnica Murowana",
            "id": "LipnicaMurowana",
            "longitude": 20.5274,
            "latitude": 49.85894
        },
        {
            "name": "Skała",
            "id": "Skala",
            "longitude": 19.853537,
            "latitude": 50.2303769
        },
        {
            "name": "Krzeszowice",
            "id": "Krzeszowice",
            "longitude": 19.6320164,
            "latitude": 50.1350246
        },
        {
            "name": "Drwinia",
            "id": "Drwinia",
            "longitude": 20.4420098,
            "latitude": 50.0980915
        },
        {
            "name": "Myślenice",
            "id": "Myslenice",
            "longitude": 19.9384283,
            "latitude": 49.834608
        },
        {
            "name": "Warszawa",
            "id": "Warszawa",
            "longitude": 21.008333,
            "latitude": 52.232222
        },
        {
            "name": "Żyrardów",
            "id": "Zyrardow",
            "longitude": 20.444444,
            "latitude": 52.054167
        },
        {
            "name": "Żuromin",
            "id": "Zuromin",
            "longitude": 19.909167,
            "latitude": 53.066667
        },
        {
            "name": "Zwoleń",
            "id": "Zwolen",
            "longitude": 21.583889,
            "latitude": 51.356944
        },
        {
            "name": "Wyszków",
            "id": "Wyszkow",
            "longitude": 21.459167,
            "latitude": 52.593056
        },
        {
            "name": "Wołomin",
            "id": "Wolomin",
            "longitude": 21.241944,
            "latitude": 52.346667
        },
        {
            "name": "Węgrów",
            "id": "Wegrow",
            "longitude": 22.016389,
            "latitude": 52.399167
        },
        {
            "name": "Ożarów Mazowiecki",
            "id": "OzarowMazowiecki",
            "longitude": 20.793611,
            "latitude": 52.208333
        },
        {
            "name": "Szydłowiec",
            "id": "Szydlowiec",
            "longitude": 20.857222,
            "latitude": 51.223889
        },
        {
            "name": "Sokołów Podlaski",
            "id": "SokolowPodlaski",
            "longitude": 22.249722,
            "latitude": 52.4075
        },
        {
            "name": "Sochaczew",
            "id": "Sochaczew",
            "longitude": 20.241667,
            "latitude": 52.227778
        },
        {
            "name": "Sierpc",
            "id": "Sierpc",
            "longitude": 19.668056,
            "latitude": 52.853056
        },
        {
            "name": "Siedlce",
            "id": "Siedlce",
            "longitude": 22.275,
            "latitude": 52.166667
        },
        {
            "name": "Radom",
            "id": "Radom",
            "longitude": 21.156667,
            "latitude": 51.403611
        },
        {
            "name": "Przysucha",
            "id": "Przysucha",
            "longitude": 20.628333,
            "latitude": 51.358333
        },
        {
            "name": "Przasnysz",
            "id": "Przasnysz",
            "longitude": 20.880556,
            "latitude": 53.019444
        },
        {
            "name": "Pruszków",
            "id": "Pruszkow",
            "longitude": 20.805556,
            "latitude": 52.165556
        },
        {
            "name": "Płońsk",
            "id": "Plonsk",
            "longitude": 20.371111,
            "latitude": 52.623333
        },
        {
            "name": "Płock",
            "id": "Plock",
            "longitude": 19.7,
            "latitude": 52.547222
        },
        {
            "name": "Piaseczno",
            "id": "Piaseczno",
            "longitude": 21.026389,
            "latitude": 52.075556
        },
        {
            "name": "Otwock",
            "id": "Otwock",
            "longitude": 21.265833,
            "latitude": 52.106111
        },
        {
            "name": "Ostrów Mazowiecka",
            "id": "OstrowMazowiecka",
            "longitude": 21.896111,
            "latitude": 52.800833
        },
        {
            "name": "Ostrołęka",
            "id": "Ostroleka",
            "longitude": 21.5725,
            "latitude": 53.082778
        },
        {
            "name": "Nowy Dwór Mazowiecki",
            "id": "NowyDworMazowiecki",
            "longitude": 20.715833,
            "latitude": 52.430278
        },
        {
            "name": "Mława",
            "id": "Mlawa",
            "longitude": 20.3575,
            "latitude": 53.127222
        },
        {
            "name": "Mińsk Mazowiecki",
            "id": "MinskMazowiecki",
            "longitude": 21.558333,
            "latitude": 52.180556
        },
        {
            "name": "Maków Mazowiecki",
            "id": "MakowMazowiecki",
            "longitude": 21.100556,
            "latitude": 52.865
        },
        {
            "name": "Łosice",
            "id": "Losice",
            "longitude": 22.718889,
            "latitude": 52.2125
        },
        {
            "name": "Lipsko",
            "id": "Lipsko",
            "longitude": 21.649167,
            "latitude": 51.158333
        },
        {
            "name": "Legionowo",
            "id": "Legionowo",
            "longitude": 20.934722,
            "latitude": 52.406667
        },
        {
            "name": "Kozienice",
            "id": "Kozienice",
            "longitude": 21.551111,
            "latitude": 51.585556
        },
        {
            "name": "Grodzisk Mazowiecki",
            "id": "GrodziskMazowiecki",
            "longitude": 20.631667,
            "latitude": 52.106389
        },
        {
            "name": "Gostynin",
            "id": "Gostynin",
            "longitude": 19.461667,
            "latitude": 52.429167
        },
        {
            "name": "Garwolin",
            "id": "Garwolin",
            "longitude": 21.615,
            "latitude": 51.896944
        },
        {
            "name": "Ciechanów",
            "id": "Ciechanow",
            "longitude": 20.610556,
            "latitude": 52.881667
        },
        {
            "name": "Białobrzegi",
            "id": "Bialobrzegi",
            "longitude": 20.95,
            "latitude": 51.648611
        },
        {
            "name": "Grójec",
            "id": "Grojec",
            "longitude": 20.8675,
            "latitude": 51.865556
        },
        {
            "name": "Pułtusk",
            "id": "Pultusk",
            "longitude": 21.083889,
            "latitude": 52.705
        },
        {
            "name": "Chorzele",
            "id": "Chorzele",
            "longitude": 20.899167,
            "latitude": 53.261111
        },
        {
            "name": "Myszyniec",
            "id": "Myszyniec",
            "longitude": 21.340556,
            "latitude": 53.384444
        },
        {
            "name": "Baborów",
            "id": "Baborow",
            "longitude": 18.0556,
            "latitude": 50.1677
        },
        {
            "name": "Biała",
            "id": "Biala",
            "longitude": 17.6478,
            "latitude": 50.3641
        },
        {
            "name": "Brzeg",
            "id": "Brzeg",
            "longitude": 17.4669,
            "latitude": 50.8604
        },
        {
            "name": "Byczyna",
            "id": "Byczyna",
            "longitude": 18.2171,
            "latitude": 51.1138
        },
        {
            "name": "Dobrodzień",
            "id": "Dobrodzien",
            "longitude": 18.4518,
            "latitude": 50.7222
        },
        {
            "name": "Głogówek",
            "id": "Glogowek",
            "longitude": 17.8639,
            "latitude": 50.3627
        },
        {
            "name": "Głubczyce",
            "id": "Glubczyce",
            "longitude": 17.8283,
            "latitude": 50.2008
        },
        {
            "name": "Głuchołazy",
            "id": "Glucholazy",
            "longitude": 17.3833,
            "latitude": 50.3178
        },
        {
            "name": "Gogolin",
            "id": "Gogolin",
            "longitude": 18.0165,
            "latitude": 50.4871
        },
        {
            "name": "Gorzów Śląski",
            "id": "GorzowSlaski",
            "longitude": 18.4273,
            "latitude": 51.0283
        },
        {
            "name": "Grodków",
            "id": "Grodkow",
            "longitude": 17.3847,
            "latitude": 50.7014
        },
        {
            "name": "Kędzierzyn-Koźle",
            "id": "KedzierzynKozle",
            "longitude": 18.2211,
            "latitude": 50.3493
        },
        {
            "name": "Kietrz",
            "id": "Kietrz",
            "longitude": 18.0066,
            "latitude": 50.0813
        },
        {
            "name": "Kluczbork",
            "id": "Kluczbork",
            "longitude": 18.2168,
            "latitude": 50.9733
        },
        {
            "name": "Kolonowskie",
            "id": "Kolonowskie",
            "longitude": 18.3562,
            "latitude": 50.6187
        },
        {
            "name": "Korfantów",
            "id": "Korfantow",
            "longitude": 17.5964,
            "latitude": 50.4873
        },
        {
            "name": "Krapkowice",
            "id": "Krapkowice",
            "longitude": 17.9674,
            "latitude": 50.4736
        },
        {
            "name": "Leśnica",
            "id": "Lesnica",
            "longitude": 18.2045,
            "latitude": 50.4289
        },
        {
            "name": "Lewin Brzeski",
            "id": "LewinBrzeski",
            "longitude": 17.6174,
            "latitude": 50.7316
        },
        {
            "name": "Namysłów",
            "id": "Namyslow",
            "longitude": 17.7229,
            "latitude": 51.0754
        },
        {
            "name": "Niemodlin",
            "id": "Niemodlin",
            "longitude": 17.6198,
            "latitude": 50.6405
        },
        {
            "name": "Nysa",
            "id": "Nysa",
            "longitude": 17.3347,
            "latitude": 50.4716
        },
        {
            "name": "Olesno",
            "id": "Olesno",
            "longitude": 18.4211,
            "latitude": 50.8757
        },
        {
            "name": "Opole",
            "id": "Opole",
            "longitude": 17.9265,
            "latitude": 50.6692
        },
        {
            "name": "Otmuchów",
            "id": "Otmuchow",
            "longitude": 17.1732,
            "latitude": 50.4671
        },
        {
            "name": "Ozimek",
            "id": "Ozimek",
            "longitude": 18.2157,
            "latitude": 50.6782
        },
        {
            "name": "Paczków",
            "id": "Paczkow",
            "longitude": 16.9831,
            "latitude": 50.4634
        },
        {
            "name": "Praszka",
            "id": "Praszka",
            "longitude": 18.4505,
            "latitude": 51.0547
        },
        {
            "name": "Prószków",
            "id": "Proszkow",
            "longitude": 17.8707,
            "latitude": 50.5865
        },
        {
            "name": "Prudnik",
            "id": "Prudnik",
            "longitude": 17.5756,
            "latitude": 50.3225
        },
        {
            "name": "Strzelce Opolskie",
            "id": "StrzelceOpolskie",
            "longitude": 18.3006,
            "latitude": 50.5098
        },
        {
            "name": "Tułowice",
            "id": "Tulowice",
            "longitude": 17.6472,
            "latitude": 50.5872
        },
        {
            "name": "Ujazd",
            "id": "Ujazd",
            "longitude": 18.3353,
            "latitude": 50.3561
        },
        {
            "name": "Wołczyn",
            "id": "Wolczyn",
            "longitude": 18.0556,
            "latitude": 51.0183
        },
        {
            "name": "Zawadzkie",
            "id": "Zawadzkie",
            "longitude": 18.4511,
            "latitude": 50.6128
        },
        {
            "name": "Zdzieszowice",
            "id": "Zdzieszowice",
            "longitude": 18.1264,
            "latitude": 50.4244
        },
        {
            "name": "Ustrzyki Dolne",
            "id": "UstrzykiDolne",
            "longitude": 22.586944,
            "latitude": 49.43
        },
        {
            "name": "Sanok",
            "id": "Sanok",
            "longitude": 22.202222,
            "latitude": 49.56
        },
        {
            "name": "Lesko",
            "id": "Lesko",
            "longitude": 22.328611,
            "latitude": 49.471944
        },
        {
            "name": "Strzyżów",
            "id": "Strzyzow",
            "longitude": 21.793889,
            "latitude": 49.870278
        },
        {
            "name": "Tarnobrzeg",
            "id": "Tarnobrzeg",
            "longitude": 21.6775,
            "latitude": 50.569167
        },
        {
            "name": "Kolbuszowa",
            "id": "Kolbuszowa",
            "longitude": 21.774167,
            "latitude": 50.243056
        },
        {
            "name": "Przeworsk",
            "id": "Przeworsk",
            "longitude": 22.493611,
            "latitude": 50.058611
        },
        {
            "name": "Brzozów",
            "id": "Brzozow",
            "longitude": 22.019444,
            "latitude": 49.694167
        },
        {
            "name": "Krosno",
            "id": "Krosno",
            "longitude": 21.766944,
            "latitude": 49.691944
        },
        {
            "name": "Jasło",
            "id": "Jaslo",
            "longitude": 21.473611,
            "latitude": 49.745833
        },
        {
            "name": "Przemyśl",
            "id": "Przemysl",
            "longitude": 22.775278,
            "latitude": 49.782222
        },
        {
            "name": "Jarosław",
            "id": "Jaroslaw",
            "longitude": 22.683611,
            "latitude": 50.018889
        },
        {
            "name": "Łańcut",
            "id": "Lancut",
            "longitude": 22.2275,
            "latitude": 50.065833
        },
        {
            "name": "Rzeszów",
            "id": "Rzeszow",
            "longitude": 21.999167,
            "latitude": 50.041111
        },
        {
            "name": "Ropczyce",
            "id": "Ropczyce",
            "longitude": 21.611111,
            "latitude": 50.052778
        },
        {
            "name": "Dębica",
            "id": "Debica",
            "longitude": 21.406944,
            "latitude": 50.050833
        },
        {
            "name": "Lubaczów",
            "id": "Lubaczow",
            "longitude": 23.1225,
            "latitude": 50.1575
        },
        {
            "name": "Leżajsk",
            "id": "Lezajsk",
            "longitude": 22.418333,
            "latitude": 50.263056
        },
        {
            "name": "Mielec",
            "id": "Mielec",
            "longitude": 21.420556,
            "latitude": 50.288056
        },
        {
            "name": "Nisko",
            "id": "Nisko",
            "longitude": 22.147778,
            "latitude": 50.518611
        },
        {
            "name": "Stalowa Wola",
            "id": "StalowaWola",
            "longitude": 22.061111,
            "latitude": 50.576111
        },
        {
            "name": "Bircza",
            "id": "Bircza",
            "longitude": 22.477778,
            "latitude": 49.691667
        },
        {
            "name": "Rymanów",
            "id": "Rymanow",
            "longitude": 21.8675,
            "latitude": 49.576111
        },
        {
            "name": "Dynów",
            "id": "Dynow",
            "longitude": 22.228056,
            "latitude": 49.818333
        },
        {
            "name": "Pruchnik",
            "id": "Pruchnik",
            "longitude": 22.515556,
            "latitude": 49.906111
        },
        {
            "name": "Cieszanów",
            "id": "Cieszanow",
            "longitude": 23.130556,
            "latitude": 50.245556
        },
        {
            "name": "Narol",
            "id": "Narol",
            "longitude": 23.326944,
            "latitude": 50.348889
        },
        {
            "name": "Pilzno",
            "id": "Pilzno",
            "longitude": 21.291111,
            "latitude": 49.978333
        },
        {
            "name": "Radomyśl Wielki",
            "id": "RadomyslWielki",
            "longitude": 21.278056,
            "latitude": 50.196111
        },
        {
            "name": "Sokołów Małopolski",
            "id": "SokolowMalopolski",
            "longitude": 22.12,
            "latitude": 50.230278
        },
        {
            "name": "Sieniawa",
            "id": "Sieniawa",
            "longitude": 22.609444,
            "latitude": 50.177778
        },
        {
            "name": "Rudnik nad Sanem",
            "id": "RudnikNadSanem",
            "longitude": 22.246667,
            "latitude": 50.441667
        },
        {
            "name": "Nowa Dęba",
            "id": "NowaDeba",
            "longitude": 21.750278,
            "latitude": 50.416389
        },
        {
            "name": "Zaklików",
            "id": "Zaklikow",
            "longitude": 22.101944,
            "latitude": 50.755833
        },
        {
            "name": "Radymno",
            "id": "Radymno",
            "longitude": 22.818611,
            "latitude": 49.951667
        },
        {
            "name": "Dukla",
            "id": "Dukla",
            "longitude": 21.684444,
            "latitude": 49.555
        },
        {
            "name": "Tomaszów Lubelski",
            "id": "TomaszowLubelski",
            "longitude": 23.415833,
            "latitude": 50.451111
        },
        {
            "name": "Biłograj",
            "id": "Bilograj",
            "longitude": 22.721944,
            "latitude": 50.540833
        },
        {
            "name": "Zamość",
            "id": "Zamosc",
            "longitude": 23.254722,
            "latitude": 50.716111
        },
        {
            "name": "Zwierzyniec",
            "id": "Zwierzyniec",
            "longitude": 22.966944,
            "latitude": 50.614444
        },
        {
            "name": "Hrubieszów",
            "id": "Hrubieszow",
            "longitude": 23.889722,
            "latitude": 50.805
        },
        {
            "name": "Kraśnik",
            "id": "Krasnik",
            "longitude": 22.219444,
            "latitude": 50.921667
        },
        {
            "name": "Krasnystaw",
            "id": "Krasnystaw",
            "longitude": 23.167222,
            "latitude": 50.981667
        },
        {
            "name": "Chełm",
            "id": "Chelm",
            "longitude": 23.470278,
            "latitude": 51.133611
        },
        {
            "name": "Świdnik",
            "id": "Swidnik",
            "longitude": 22.700278,
            "latitude": 51.22
        },
        {
            "name": "Lublin",
            "id": "Lublin",
            "longitude": 22.568056,
            "latitude": 51.247778
        },
        {
            "name": "Puławy",
            "id": "Pulawy",
            "longitude": 21.969167,
            "latitude": 51.416389
        },
        {
            "name": "Łęczna",
            "id": "Leczna",
            "longitude": 22.882222,
            "latitude": 51.304722
        },
        {
            "name": "Włodawa",
            "id": "Wlodawa",
            "longitude": 23.553889,
            "latitude": 51.544444
        },
        {
            "name": "Janów Lubelski",
            "id": "JanowLubelski",
            "longitude": 22.410556,
            "latitude": 50.706667
        },
        {
            "name": "Radzyń Podlaski",
            "id": "RadzynPodlaski",
            "longitude": 22.619167,
            "latitude": 51.785
        },
        {
            "name": "Łuków",
            "id": "Lukow",
            "longitude": 22.380556,
            "latitude": 51.93
        },
        {
            "name": "Biała Podlaska",
            "id": "BialaPodlaska",
            "longitude": 23.116667,
            "latitude": 52.033333
        },
        {
            "name": "Janów Podlaski",
            "id": "JanowPodlaski",
            "longitude": 23.210556,
            "latitude": 52.195556
        },
        {
            "name": "Lubartów",
            "id": "Lubartow",
            "longitude": 22.608611,
            "latitude": 51.462222
        },
        {
            "name": "Opole Lubelskie",
            "id": "OpoleLubelskie",
            "longitude": 21.968889,
            "latitude": 51.147222
        },
        {
            "name": "Ryki",
            "id": "Ryki",
            "longitude": 21.933056,
            "latitude": 51.624722
        },
        {
            "name": "Parczew",
            "id": "Parczew",
            "longitude": 22.904056,
            "latitude": 51.641361
        },
        {
            "name": "Bychawa",
            "id": "Bychawa",
            "longitude": 22.532778,
            "latitude": 51.015833
        },
        {
            "name": "Wierzbica",
            "id": "Wierzbica",
            "longitude": 23.324167,
            "latitude": 51.262778
        },
        {
            "name": "Łaszczów",
            "id": "Laszczow",
            "longitude": 23.715833,
            "latitude": 50.531667
        },
        {
            "name": "Stoczek Łukowski",
            "id": "StoczekLukowski",
            "longitude": 21.969444,
            "latitude": 51.961389
        },
        {
            "name": "Piszczac",
            "id": "Piszczac",
            "longitude": 23.376111,
            "latitude": 51.981111
        },
        {
            "name": "Białopole",
            "id": "Bialopole",
            "longitude": 23.732778,
            "latitude": 50.985
        },
        {
            "name": "Białystok",
            "id": "Bialystok",
            "longitude": 23.145556,
            "latitude": 53.135278
        },
        {
            "name": "Suwałki",
            "id": "Suwalki",
            "longitude": 22.9325,
            "latitude": 54.101111
        },
        {
            "name": "Łomża",
            "id": "Lomza",
            "longitude": 22.073056,
            "latitude": 53.176389
        },
        {
            "name": "Augustów",
            "id": "Augustow",
            "longitude": 22.9775,
            "latitude": 53.843611
        },
        {
            "name": "Bielsk Podlaski",
            "id": "BielskPodlaski",
            "longitude": 23.191944,
            "latitude": 52.768333
        },
        {
            "name": "Grajewo",
            "id": "Grajewo",
            "longitude": 22.455,
            "latitude": 53.646667
        },
        {
            "name": "Zambrów",
            "id": "Zambrow",
            "longitude": 22.241111,
            "latitude": 52.985556
        },
        {
            "name": "Hajnówka",
            "id": "Hajnowka",
            "longitude": 23.583333,
            "latitude": 52.738889
        },
        {
            "name": "Sokółka",
            "id": "Sokolka",
            "longitude": 23.5,
            "latitude": 53.406944
        },
        {
            "name": "Łapy",
            "id": "Lapy",
            "longitude": 22.885278,
            "latitude": 52.991111
        },
        {
            "name": "Siemiatycze",
            "id": "Siemiatycze",
            "longitude": 22.8625,
            "latitude": 52.427222
        },
        {
            "name": "Wasilków",
            "id": "Wasilkow",
            "longitude": 23.204444,
            "latitude": 53.2
        },
        {
            "name": "Kolno",
            "id": "Kolno",
            "longitude": 21.933889,
            "latitude": 53.410556
        },
        {
            "name": "Mońki",
            "id": "Monki",
            "longitude": 22.797222,
            "latitude": 53.406944
        },
        {
            "name": "Wysokie Mazowieckie",
            "id": "WysokieMazowieckie",
            "longitude": 22.514444,
            "latitude": 52.916667
        },
        {
            "name": "Czarna Białostocka",
            "id": "CzarnaBialostocka",
            "longitude": 23.282222,
            "latitude": 53.305278
        },
        {
            "name": "Choroszcz",
            "id": "Choroszcz",
            "longitude": 22.985556,
            "latitude": 53.143056
        },
        {
            "name": "Dąbrowa Białostocka",
            "id": "DabrowaBialostocka",
            "longitude": 23.348611,
            "latitude": 53.653611
        },
        {
            "name": "Sejny",
            "id": "Sejny",
            "longitude": 23.348611,
            "latitude": 54.106667
        },
        {
            "name": "Ciechanowiec",
            "id": "Ciechanowiec",
            "longitude": 22.491667,
            "latitude": 52.686111
        },
        {
            "name": "Supraśl",
            "id": "Suprasl",
            "longitude": 23.3375,
            "latitude": 53.211111
        },
        {
            "name": "Brańsk",
            "id": "Bransk",
            "longitude": 22.833333,
            "latitude": 52.745556
        },
        {
            "name": "Szczuczyn",
            "id": "Szczuczyn",
            "longitude": 22.285,
            "latitude": 53.566111
        },
        {
            "name": "Michałowo",
            "id": "Michalowo",
            "longitude": 23.604444,
            "latitude": 53.036944
        },
        {
            "name": "Knyszyn",
            "id": "Knyszyn",
            "longitude": 22.919444,
            "latitude": 53.3125
        },
        {
            "name": "Zabłudów",
            "id": "Zabludow",
            "longitude": 23.335278,
            "latitude": 53.015278
        },
        {
            "name": "Czyżew",
            "id": "Czyzew",
            "longitude": 22.329167,
            "latitude": 52.795833
        },
        {
            "name": "Krynki",
            "id": "Krynki",
            "longitude": 23.772222,
            "latitude": 53.265278
        },
        {
            "name": "Nowogród",
            "id": "Nowogrod",
            "longitude": 21.880556,
            "latitude": 53.227778
        },
        {
            "name": "Lipsk",
            "id": "Lipsk",
            "longitude": 23.399722,
            "latitude": 53.733611
        },
        {
            "name": "Drohiczyn",
            "id": "Drohiczyn",
            "longitude": 22.659167,
            "latitude": 52.397222
        },
        {
            "name": "Białowieża",
            "id": "Bialowieza",
            "longitude": 23.867778,
            "latitude": 52.700556
        },
        {
            "name": "Wigry",
            "id": "Wigry",
            "longitude": 23.080214,
            "latitude": 54.019267
        },
        {
            "name": "Bartoszyce",
            "id": "Bartoszyce",
            "longitude": 20.808056,
            "latitude": 54.248889
        },
        {
            "name": "Bisztynek",
            "id": "Bisztynek",
            "longitude": 20.9,
            "latitude": 54.085556
        },
        {
            "name": "Braniewo",
            "id": "Braniewo",
            "longitude": 19.819722,
            "latitude": 54.379444
        },
        {
            "name": "Frombork",
            "id": "Frombork",
            "longitude": 19.683056,
            "latitude": 54.358333
        },
        {
            "name": "Działdowo",
            "id": "Dzialdowo",
            "longitude": 20.177778,
            "latitude": 53.236111
        },
        {
            "name": "Lidzbark",
            "id": "Lidzbark",
            "longitude": 19.821111,
            "latitude": 53.260278
        },
        {
            "name": "Elbląg",
            "id": "Elblag",
            "longitude": 19.402778,
            "latitude": 54.158333
        },
        {
            "name": "Młynary",
            "id": "Mlynary",
            "longitude": 19.720367,
            "latitude": 54.186356
        },
        {
            "name": "Ełk",
            "id": "Elk",
            "longitude": 22.362222,
            "latitude": 53.821389
        },
        {
            "name": "Giżycko",
            "id": "Gizycko",
            "longitude": 21.758889,
            "latitude": 54.04
        },
        {
            "name": "Ryn",
            "id": "Ryn",
            "longitude": 21.515047,
            "latitude": 53.944325
        },
        {
            "name": "Gołdap",
            "id": "Goldap",
            "longitude": 22.309444,
            "latitude": 54.316111
        },
        {
            "name": "Iława",
            "id": "Ilawa",
            "longitude": 19.565556,
            "latitude": 53.596389
        },
        {
            "name": "Kisielice",
            "id": "Kisielice",
            "longitude": 19.259444,
            "latitude": 53.606944
        },
        {
            "name": "Kętrzyn",
            "id": "Ketrzyn",
            "longitude": 21.375278,
            "latitude": 54.076944
        },
        {
            "name": "Korsze",
            "id": "Korsze",
            "longitude": 21.141111,
            "latitude": 54.171389
        },
        {
            "name": "Lidzbark Warmiński",
            "id": "LidzbarkWarminski",
            "longitude": 20.581736,
            "latitude": 54.123692
        },
        {
            "name": "Orneta",
            "id": "Orneta",
            "longitude": 20.13,
            "latitude": 54.115556
        },
        {
            "name": "Mrągowo",
            "id": "Mragowo",
            "longitude": 21.299722,
            "latitude": 53.869167
        },
        {
            "name": "Mikołajki",
            "id": "Mikolajki",
            "longitude": 21.571667,
            "latitude": 53.803611
        },
        {
            "name": "Nidzica",
            "id": "Nidzica",
            "longitude": 20.425,
            "latitude": 53.358333
        },
        {
            "name": "Nowe Miasto Lubawskie",
            "id": "NoweMiastoLubawskie",
            "longitude": 19.587778,
            "latitude": 53.425556
        },
        {
            "name": "Olecko",
            "id": "Olecko",
            "longitude": 22.498333,
            "latitude": 54.036111
        },
        {
            "name": "Olsztyn",
            "id": "Olsztyn",
            "longitude": 20.49416,
            "latitude": 53.77995
        },
        {
            "name": "Biskupiec",
            "id": "Biskupiec",
            "longitude": 20.955833,
            "latitude": 53.863056
        },
        {
            "name": "Ostróda",
            "id": "Ostroda",
            "longitude": 19.966111,
            "latitude": 53.693889
        },
        {
            "name": "Miłomłyn",
            "id": "Milomlyn",
            "longitude": 19.838056,
            "latitude": 53.764167
        },
        {
            "name": "Pisz",
            "id": "Pisz",
            "longitude": 21.8125,
            "latitude": 53.628889
        },
        {
            "name": "Biała Piska",
            "id": "BialaPiska",
            "longitude": 22.063056,
            "latitude": 53.611389
        },
        {
            "name": "Szczytno",
            "id": "Szczytno",
            "longitude": 20.985278,
            "latitude": 53.562778
        },
        {
            "name": "Pasym",
            "id": "Pasym",
            "longitude": 20.791944,
            "latitude": 53.651111
        },
        {
            "name": "Węgorzewo",
            "id": "Wegorzewo",
            "longitude": 21.741389,
            "latitude": 54.213889
        },
        {
            "name": "Górowo Iławeckie",
            "id": "GorowoIlaweckie",
            "longitude": 20.495556,
            "latitude": 54.284444
        },
        {
            "name": "Pasłęk",
            "id": "Paslek",
            "longitude": 19.663794,
            "latitude": 54.061931
        },
        {
            "name": "Morąg",
            "id": "Morag",
            "longitude": 19.927847,
            "latitude": 53.916269
        },
        {
            "name": "Dobre Miasto",
            "id": "DobreMiasto",
            "longitude": 20.395833,
            "latitude": 53.9875
        },
        {
            "name": "Lubawa",
            "id": "Lubawa",
            "longitude": 19.751667,
            "latitude": 53.505
        },
        {
            "name": "Olsztynek",
            "id": "Olsztynek",
            "longitude": 20.282778,
            "latitude": 53.5825
        },
        {
            "name": "Ruciane-Nida",
            "id": "RucianeNida",
            "longitude": 21.549944,
            "latitude": 53.650297
        },
        {
            "name": "Orzysz",
            "id": "Orzysz",
            "longitude": 21.947297,
            "latitude": 53.810264
        },
        {
            "name": "Gdańsk",
            "id": "Gdansk",
            "longitude": 18.640278,
            "latitude": 54.378611
        },
        {
            "name": "Gdynia",
            "id": "Gdynia",
            "longitude": 18.539444,
            "latitude": 54.519167
        },
        {
            "name": "Bytów",
            "id": "Bytow",
            "longitude": 17.490833,
            "latitude": 54.171111
        },
        {
            "name": "Chojnice",
            "id": "Chojnice",
            "longitude": 17.556389,
            "latitude": 53.694167
        },
        {
            "name": "Czluchow",
            "id": "Czluchow",
            "longitude": 17.36,
            "latitude": 53.664444
        },
        {
            "name": "Kartuzy",
            "id": "Kartuzy",
            "longitude": 18.201389,
            "latitude": 54.335
        },
        {
            "name": "Kościerzyna",
            "id": "Koscierzyna",
            "longitude": 17.981111,
            "latitude": 54.121944
        },
        {
            "name": "Kwidzyn",
            "id": "Kwidzyn",
            "longitude": 18.930833,
            "latitude": 53.735833
        },
        {
            "name": "Lębork",
            "id": "Lebork",
            "longitude": 17.747222,
            "latitude": 54.539167
        },
        {
            "name": "Malbork",
            "id": "Malbork",
            "longitude": 19.028056,
            "latitude": 54.035
        },
        {
            "name": "Nowy Dwór Gdański",
            "id": "NowyDworGdanski",
            "longitude": 19.116667,
            "latitude": 54.2125
        },
        {
            "name": "Starogard Gdański",
            "id": "StarogardGdanski",
            "longitude": 18.525833,
            "latitude": 53.963056
        },
        {
            "name": "Pruszcz Gdański",
            "id": "PruszczGdanski",
            "longitude": 18.636389,
            "latitude": 54.261944
        },
        {
            "name": "Puck",
            "id": "Puck",
            "longitude": 18.408611,
            "latitude": 54.717778
        },
        {
            "name": "Słupsk",
            "id": "Slupsk",
            "longitude": 17.029167,
            "latitude": 54.465833
        },
        {
            "name": "Sopot",
            "id": "Sopot",
            "longitude": 18.559722,
            "latitude": 54.441944
        },
        {
            "name": "Sztum",
            "id": "Sztum",
            "longitude": 19.033611,
            "latitude": 53.921667
        },
        {
            "name": "Tczew",
            "id": "Tczew",
            "longitude": 18.777331,
            "latitude": 54.092192
        },
        {
            "name": "Wejherowo",
            "id": "Wejherowo",
            "longitude": 18.248889,
            "latitude": 54.604167
        },
        {
            "name": "Rumia",
            "id": "Rumia",
            "longitude": 18.387778,
            "latitude": 54.570556
        },
        {
            "name": "Reda",
            "id": "Reda",
            "longitude": 18.346111,
            "latitude": 54.6075
        },
        {
            "name": "Ustka",
            "id": "Ustka",
            "longitude": 16.869167,
            "latitude": 54.578611
        },
        {
            "name": "Czersk",
            "id": "Czersk",
            "longitude": 17.973889,
            "latitude": 53.792778
        },
        {
            "name": "Miastko",
            "id": "Miastko",
            "longitude": 16.976389,
            "latitude": 53.999167
        },
        {
            "name": "Władysławowo",
            "id": "Wladyslawowo",
            "longitude": 18.414444,
            "latitude": 54.793056
        },
        {
            "name": "Prabuty",
            "id": "Prabuty",
            "longitude": 19.1975,
            "latitude": 53.755833
        },
        {
            "name": "Pelplin",
            "id": "Pelplin",
            "longitude": 18.701111,
            "latitude": 53.926111
        },
        {
            "name": "Skarszewy",
            "id": "Skarszewy",
            "longitude": 18.445833,
            "latitude": 54.067222
        },
        {
            "name": "Żukowo",
            "id": "Żukowo",
            "longitude": 18.360556,
            "latitude": 54.345833
        },
        {
            "name": "Gniew",
            "id": "Gniew",
            "longitude": 18.8225,
            "latitude": 53.835556
        },
        {
            "name": "Czarne",
            "id": "Czarne",
            "longitude": 16.939722,
            "latitude": 53.683889
        },
        {
            "name": "Brusy",
            "id": "Brusy",
            "longitude": 17.721944,
            "latitude": 53.885556
        },
        {
            "name": "Dzierzgoń",
            "id": "Dzierzgon",
            "longitude": 19.351389,
            "latitude": 53.923333
        },
        {
            "name": "Debrzno",
            "id": "Debrzno",
            "longitude": 17.236111,
            "latitude": 53.538056
        },
        {
            "name": "Nowy Staw",
            "id": "NowyStaw",
            "longitude": 19.013333,
            "latitude": 54.135556
        },
        {
            "name": "Skorcz",
            "id": "Skorcz",
            "longitude": 18.526111,
            "latitude": 53.796667
        },
        {
            "name": "Kępice",
            "id": "Kepice",
            "longitude": 16.889722,
            "latitude": 54.241111
        },
        {
            "name": "Łeba",
            "id": "Łeba",
            "longitude": 17.557222,
            "latitude": 54.761111
        },
        {
            "name": "Katowice",
            "id": "Katowice",
            "longitude": 19.039993,
            "latitude": 50.270908
        },
        {
            "name": "Częstochowa",
            "id": "Czestochowa",
            "longitude": 19.12409,
            "latitude": 50.79646
        },
        {
            "name": "Sosnowiec",
            "id": "Sosnowiec",
            "longitude": 19.10385,
            "latitude": 50.28682
        },
        {
            "name": "Gliwice",
            "id": "Gliwice",
            "longitude": 18.67658,
            "latitude": 50.29761
        },
        {
            "name": "Bielsko-Biała",
            "id": "BielskoBiala",
            "longitude": 19.04686,
            "latitude": 49.82245
        },
        {
            "name": "Zabrze",
            "id": "Zabrze",
            "longitude": 18.78576,
            "latitude": 50.32492
        },
        {
            "name": "Bytom",
            "id": "Bytom",
            "longitude": 18.93282,
            "latitude": 50.34802
        },
        {
            "name": "Rybnik",
            "id": "Rybnik",
            "longitude": 18.54179,
            "latitude": 50.09713
        },
        {
            "name": "Ruda Śląska",
            "id": "RudaSlaska",
            "longitude": 18.85632,
            "latitude": 50.2584
        },
        {
            "name": "Tychy",
            "id": "Tychy",
            "longitude": 18.96641,
            "latitude": 50.13717
        },
        {
            "name": "Dąbrowa Górnicza",
            "id": "DabrowaGornicza",
            "longitude": 19.20479,
            "latitude": 50.33394
        },
        {
            "name": "Chorzów",
            "id": "Chorzow",
            "longitude": 18.9742,
            "latitude": 50.30582
        },
        {
            "name": "Jaworzno",
            "id": "Jaworzno",
            "longitude": 19.27498,
            "latitude": 50.20528
        },
        {
            "name": "Jastrzębie-Zdrój",
            "id": "JastrzebieZdroj",
            "longitude": 18.57479,
            "latitude": 49.95542
        },
        {
            "name": "Mysłowice",
            "id": "Myslowice",
            "longitude": 19.16668,
            "latitude": 50.20745
        },
        {
            "name": "Siemianowice Śląskie",
            "id": "SiemianowiceSlaskie",
            "longitude": 19.02901,
            "latitude": 50.32738
        },
        {
            "name": "Żory",
            "id": "Zory",
            "longitude": 18.70062,
            "latitude": 50.04523
        },
        {
            "name": "Tarnowskie Góry",
            "id": "TarnowskieGory",
            "longitude": 18.86147,
            "latitude": 50.44548
        },
        {
            "name": "Będzin",
            "id": "Bedzin",
            "longitude": 19.12565,
            "latitude": 50.32607
        },
        {
            "name": "Piekary Śląskie",
            "id": "PiekarySlaskie",
            "longitude": 18.92653,
            "latitude": 50.38017
        },
        {
            "name": "Racibórz",
            "id": "Raciborz",
            "longitude": 18.21928,
            "latitude": 50.09195
        },
        {
            "name": "Zawiercie",
            "id": "Zawiercie",
            "longitude": 19.41679,
            "latitude": 50.48766
        },
        {
            "name": "Świętochłowice",
            "id": "Swietochlowice",
            "longitude": 18.91726,
            "latitude": 50.29636
        },
        {
            "name": "Wodzisław Śląski",
            "id": "WodzislawSlaski",
            "longitude": 18.47205,
            "latitude": 50.00377
        },
        {
            "name": "Mikołów",
            "id": "Mikolow",
            "longitude": 18.9041,
            "latitude": 50.17103
        },
        {
            "name": "Knurów",
            "id": "Knurow",
            "longitude": 18.65067,
            "latitude": 50.21971
        },
        {
            "name": "Czechowice-Dziedzice",
            "id": "CzechowiceDziedzice",
            "longitude": 19.00479,
            "latitude": 49.91342
        },
        {
            "name": "Cieszyn",
            "id": "Cieszyn",
            "longitude": 18.63213,
            "latitude": 49.75133
        },
        {
            "name": "Żywiec",
            "id": "Zywiec",
            "longitude": 19.19243,
            "latitude": 49.68529
        },
        {
            "name": "Myszków",
            "id": "Myszkow",
            "longitude": 19.32461,
            "latitude": 50.5752
        },
        {
            "name": "Czerwionka-Leszczyny",
            "id": "CzerwionkaLeszczyny",
            "longitude": 18.67762,
            "latitude": 50.15007
        },
        {
            "name": "Pszczyna",
            "id": "Pszczyna",
            "longitude": 18.95382,
            "latitude": 49.98037
        },
        {
            "name": "Lubliniec",
            "id": "Lubliniec",
            "longitude": 18.6844,
            "latitude": 50.66897
        },
        {
            "name": "Orzesze",
            "id": "Orzesze",
            "longitude": 18.77923,
            "latitude": 50.15595
        },
        {
            "name": "Łaziska Górne",
            "id": "LaziskaGorne",
            "longitude": 18.84215,
            "latitude": 50.14952
        },
        {
            "name": "Rydułtowy",
            "id": "Rydultowy",
            "longitude": 18.41703,
            "latitude": 50.05857
        },
        {
            "name": "Bieruń",
            "id": "Bierun",
            "longitude": 19.09291,
            "latitude": 50.09
        },
        {
            "name": "Radlin",
            "id": "Radlin",
            "longitude": 18.47626,
            "latitude": 50.0502
        },
        {
            "name": "Lędziny",
            "id": "Ledziny",
            "longitude": 19.13149,
            "latitude": 50.14264
        },
        {
            "name": "Radzionków",
            "id": "Radzionkow",
            "longitude": 18.90232,
            "latitude": 50.40026
        },
        {
            "name": "Ustroń",
            "id": "Ustron",
            "longitude": 18.80198,
            "latitude": 49.72153
        },
        {
            "name": "Wisła",
            "id": "Wisla",
            "longitude": 18.8591,
            "latitude": 49.65629
        },
        {
            "name": "Szczyrk",
            "id": "Szczyrk",
            "longitude": 19.03183,
            "latitude": 49.71724
        },
        {
            "name": "Kłobuck",
            "id": "Klobuck",
            "longitude": 18.93674,
            "latitude": 50.90081
        },
        {
            "name": "Krzepice",
            "id": "Krzepice",
            "longitude": 18.72886,
            "latitude": 50.97059
        },
        {
            "name": "Imielin",
            "id": "Imielin",
            "longitude": 19.18599,
            "latitude": 50.14534
        },
        {
            "name": "Koniecpol",
            "id": "Koniecpol",
            "longitude": 19.68896,
            "latitude": 50.77468
        },
        {
            "name": "Żarki",
            "id": "Zarki",
            "longitude": 19.36357,
            "latitude": 50.62518
        },
        {
            "name": "Koziegłowy",
            "id": "Kozieglowy",
            "longitude": 19.16299,
            "latitude": 50.60035
        },
        {
            "name": "Woźniki",
            "id": "Wozniki",
            "longitude": 19.05991,
            "latitude": 50.58934
        },
        {
            "name": "Siewierz",
            "id": "Siewierz",
            "longitude": 19.23028,
            "latitude": 50.46657
        },
        {
            "name": "Blachownia",
            "id": "Blachownia",
            "longitude": 18.96389,
            "latitude": 50.78015
        },
        {
            "name": "Strumień",
            "id": "Strumien",
            "longitude": 18.76637,
            "latitude": 49.92103
        },
        {
            "name": "Skoczów",
            "id": "Skoczow",
            "longitude": 18.7877,
            "latitude": 49.80089
        },
        {
            "name": "Ożarów",
            "id": "Ozarow",
            "longitude": 21.6656244,
            "latitude": 50.8864089
        },
        {
            "name": "Opatów",
            "id": "Opatow",
            "longitude": 21.4238281,
            "latitude": 50.8017661
        },
        {
            "name": "Raków",
            "id": "Rakow",
            "longitude": 21.0423365,
            "latitude": 50.6750443
        },
        {
            "name": "Nowa Słupia",
            "id": "NowaSlupia",
            "longitude": 21.0907296,
            "latitude": 50.8640377
        },
        {
            "name": "Końskie",
            "id": "Konskie",
            "longitude": 20.4071836,
            "latitude": 51.1910223
        },
        {
            "name": "Wiśniówka",
            "id": "Wisniowka",
            "longitude": 20.676334,
            "latitude": 50.9333939
        },
        {
            "name": "Węchadłów",
            "id": "Wechadlow",
            "longitude": 20.356941,
            "latitude": 50.4601082
        },
        {
            "name": "Chmielnik",
            "id": "Chmielnik",
            "longitude": 20.7510406,
            "latitude": 50.6145952
        },
        {
            "name": "Koprzywnica",
            "id": "Koprzywnica",
            "longitude": 21.5847266,
            "latitude": 50.5932218
        },
        {
            "name": "Wąchock",
            "id": "Wachock",
            "longitude": 21.0116897,
            "latitude": 51.073812
        },
        {
            "name": "Strzelce",
            "id": "Strzelce",
            "longitude": 21.035151,
            "latitude": 50.4751034
        },
        {
            "name": "Ostrowiec Świętokrzyski",
            "id": "OstrowiecSwietokrzyski",
            "longitude": 21.38743,
            "latitude": 50.9398768
        },
        {
            "name": "Tarłów",
            "id": "Tarlow",
            "longitude": 21.715178,
            "latitude": 51.0010956
        },
        {
            "name": "Rzepin Kolonia",
            "id": "RzepinKolonia",
            "longitude": 21.0910019,
            "latitude": 50.9692808
        },
        {
            "name": "Gnojno",
            "id": "Gnojno",
            "longitude": 20.84978,
            "latitude": 50.60161
        },
        {
            "name": "Brzegi",
            "id": "Brzegi",
            "longitude": 20.40329,
            "latitude": 50.73997
        },
        {
            "name": "Polaniec",
            "id": "Polaniec",
            "longitude": 21.2810473,
            "latitude": 50.4329071
        },
        {
            "name": "Kije",
            "id": "Kije",
            "longitude": 20.5710845,
            "latitude": 50.6076305
        },
        {
            "name": "Małogoszcz",
            "id": "Malogoszcz",
            "longitude": 20.2648324,
            "latitude": 50.8123487
        },
        {
            "name": "Staszów",
            "id": "Staszow",
            "longitude": 21.1677849,
            "latitude": 50.5612276
        },
        {
            "name": "Bogoria",
            "id": "Bogoria",
            "longitude": 21.2601913,
            "latitude": 50.6519146
        },
        {
            "name": "Mniów",
            "id": "Mniow",
            "longitude": 20.4857784,
            "latitude": 51.0121708
        },
        {
            "name": "Iwaniska",
            "id": "Iwaniska",
            "longitude": 21.281111,
            "latitude": 50.7314289
        },
        {
            "name": "Pacanów",
            "id": "Pacanow",
            "longitude": 21.0409852,
            "latitude": 50.3999656
        },
        {
            "name": "Radoszyce",
            "id": "Radoszyce",
            "longitude": 20.2597677,
            "latitude": 51.0736699
        },
        {
            "name": "Sędziszów",
            "id": "Sedziszow",
            "longitude": 20.0538047,
            "latitude": 50.564781
        },
        {
            "name": "Chęciny",
            "id": "Checiny",
            "longitude": 20.4622228,
            "latitude": 50.8000835
        },
        {
            "name": "Secemin",
            "id": "Secemin",
            "longitude": 19.8370124,
            "latitude": 50.7683898
        },
        {
            "name": "Kielce",
            "id": "Kielce",
            "longitude": 20.60991568734511,
            "latitude": 50.85402845
        },
        {
            "name": "Wiślica",
            "id": "Wislica",
            "longitude": 20.6745381,
            "latitude": 50.3484831
        },
        {
            "name": "Opatowiec",
            "id": "Opatowiec",
            "longitude": 20.7237798,
            "latitude": 50.2425871
        },
        {
            "name": "Daleszyce",
            "id": "Daleszyce",
            "longitude": 20.8066334,
            "latitude": 50.801991
        },
        {
            "name": "Szydłów",
            "id": "Szydlow",
            "longitude": 21.0045698,
            "latitude": 50.5907684
        },
        {
            "name": "Włostów",
            "id": "Wlostow",
            "longitude": 21.4413527,
            "latitude": 50.7464985
        },
        {
            "name": "Kunów",
            "id": "Kunow",
            "longitude": 21.278823,
            "latitude": 50.9541063
        },
        {
            "name": "Ruda Malenicka",
            "id": "RudaMalenicka",
            "longitude": 20.221111,
            "latitude": 51.146944
        },
        {
            "name": "Stąporków",
            "id": "Staporkow",
            "longitude": 20.5573073,
            "latitude": 51.1380145
        },
        {
            "name": "Busko-Zdrój",
            "id": "BuskoZdroj",
            "longitude": 20.71919,
            "latitude": 50.46759
        },
        {
            "name": "Suchedniów",
            "id": "Suchedniow",
            "longitude": 20.8386652,
            "latitude": 51.0472338
        },
        {
            "name": "Pińczów",
            "id": "Pinczow",
            "longitude": 20.5256241,
            "latitude": 50.5201929
        },
        {
            "name": "Rogów",
            "id": "Rogow",
            "longitude": 20.6973147,
            "latitude": 50.2256661
        },
        {
            "name": "Skalbmierz",
            "id": "Skalbmierz",
            "longitude": 20.3996843,
            "latitude": 50.3170888
        },
        {
            "name": "Nowy Korczyn",
            "id": "NowyKorczyn",
            "longitude": 20.8090569,
            "latitude": 50.2994316
        },
        {
            "name": "Klimontów",
            "id": "Klimontow",
            "longitude": 21.4506186,
            "latitude": 50.6563871
        },
        {
            "name": "Mnichów",
            "id": "Mnichow",
            "longitude": 20.3657907,
            "latitude": 50.6981636
        },
        {
            "name": "Oleśnica",
            "id": "OlesnicaSK",
            "longitude": 21.0637505,
            "latitude": 50.4506465
        },
        {
            "name": "Radków",
            "id": "Radkow",
            "longitude": 19.987442,
            "latitude": 50.713404
        },
        {
            "name": "Łopuszno",
            "id": "Lopuszno",
            "longitude": 20.2505964,
            "latitude": 50.948616
        },
        {
            "name": "Ćmielów",
            "id": "Cmielow",
            "longitude": 21.5100875,
            "latitude": 50.8918364
        },
        {
            "name": "Wygiełzów",
            "id": "Wygielzow",
            "longitude": 21.2412432,
            "latitude": 50.6956667
        },
        {
            "name": "Kazimierza Wielka",
            "id": "KazimierzaWielka",
            "longitude": 20.4853308,
            "latitude": 50.267489
        },
        {
            "name": "Łagów",
            "id": "Lagow",
            "longitude": 21.0839837,
            "latitude": 50.7754877
        },
        {
            "name": "Jędrzejów",
            "id": "Jedrzejow",
            "longitude": 20.3046116,
            "latitude": 50.6394435
        },
        {
            "name": "Sandomierz",
            "id": "Sandomierz",
            "longitude": 21.7495055,
            "latitude": 50.6793066
        },
        {
            "name": "Morawica",
            "id": "Morawica",
            "longitude": 20.618127,
            "latitude": 50.7478149
        },
        {
            "name": "Łoniów",
            "id": "Loniow",
            "longitude": 21.526238,
            "latitude": 50.5643783
        },
        {
            "name": "Wodzisław",
            "id": "Wodzislaw",
            "longitude": 20.1909163,
            "latitude": 50.5211403
        },
        {
            "name": "Nagłowice",
            "id": "Naglowice",
            "longitude": 20.1061001,
            "latitude": 50.6783328
        },
        {
            "name": "Skarżysko-Kamienna",
            "id": "SkarzyskoKamienna",
            "longitude": 20.87700914767867,
            "latitude": 51.1229657
        },
        {
            "name": "Podeczciniec",
            "id": "Podeczciniec",
            "longitude": 20.4598818,
            "latitude": 50.7569686
        },
        {
            "name": "Bodzentyn",
            "id": "Bodzentyn",
            "longitude": 20.9573478,
            "latitude": 50.9409927
        },
        {
            "name": "Starachowice",
            "id": "Starachowice",
            "longitude": 21.08208422827831,
            "latitude": 51.03845695
        },
        {
            "name": "Działoszyce",
            "id": "Dzialoszyce",
            "longitude": 20.3521471,
            "latitude": 50.3654682
        },
        {
            "name": "Włoszczowa",
            "id": "Wloszczowa",
            "longitude": 19.9667772,
            "latitude": 50.8520727
        },
        {
            "name": "Grabki Duże",
            "id": "GrabkiDuze",
            "longitude": 20.9540426,
            "latitude": 50.5877849
        },
        {
            "name": "Napęków",
            "id": "Napekow",
            "longitude": 20.9042971,
            "latitude": 50.8238051
        },
        {
            "name": "Zawichost",
            "id": "Zawichost",
            "longitude": 21.8523835,
            "latitude": 50.8074312
        },
        {
            "name": "Lipnik",
            "id": "Lipnik",
            "longitude": 21.4912303,
            "latitude": 50.7294798
        },
        {
            "name": "Pierzchnica",
            "id": "Pierzchnica",
            "longitude": 20.7544258,
            "latitude": 50.6974266
        },
        {
            "name": "Stopnica",
            "id": "Stopnica",
            "longitude": 20.9385676,
            "latitude": 50.4382587
        },
        {
            "name": "Fałków",
            "id": "Falkow",
            "longitude": 20.1007167,
            "latitude": 51.1348726
        },
        {
            "name": "Michałów Dolny",
            "id": "MichalowDolny",
            "longitude": 21.0972317,
            "latitude": 51.0086278
        },
        {
            "name": "Osiek",
            "id": "Osiek",
            "longitude": 21.4425619,
            "latitude": 50.5194515
        },
        {
            "name": "Górno",
            "id": "Gorno",
            "longitude": 20.82244,
            "latitude": 50.84859
        },
        {
            "name": "Gowarczów",
            "id": "Gowarczow",
            "longitude": 20.438142,
            "latitude": 51.2784974
        },
        {
            "name": "Kluczewisko",
            "id": "Kluczewisko",
            "longitude": 19.919167,
            "latitude": 50.927222
        },
        {
            "name": "Moskorzew",
            "id": "Moskorzew",
            "longitude": 19.93014,
            "latitude": 50.64633
        },
        {
            "name": "Piekoszów",
            "id": "Piekoszow",
            "longitude": 20.4642464,
            "latitude": 50.881422
        },
        {
            "name": "Rytwiany",
            "id": "Rytwiany",
            "longitude": 21.2058174,
            "latitude": 50.5288665
        },
        {
            "name": "Poznań",
            "id": "Poznan",
            "longitude": 16.92993,
            "latitude": 52.40692
        },
        {
            "name": "Kalisz",
            "id": "Kalisz",
            "longitude": 18.09102,
            "latitude": 51.76109
        },
        {
            "name": "Piła",
            "id": "Pila",
            "longitude": 16.73782,
            "latitude": 53.15145
        },
        {
            "name": "Ostrów Wielkopolski",
            "id": "OstrowWielkopolski",
            "longitude": 17.80686,
            "latitude": 51.65501
        },
        {
            "name": "Konin",
            "id": "Konin",
            "longitude": 18.25121,
            "latitude": 52.22338
        },
        {
            "name": "Gniezno",
            "id": "Gniezno",
            "longitude": 17.58259,
            "latitude": 52.53481
        },
        {
            "name": "Leszno",
            "id": "Leszno",
            "longitude": 16.57494,
            "latitude": 51.84034
        },
        {
            "name": "Luboń",
            "id": "Lubon",
            "longitude": 16.89267,
            "latitude": 52.34705
        },
        {
            "name": "Września",
            "id": "Wrzesnia",
            "longitude": 17.56519,
            "latitude": 52.32512
        },
        {
            "name": "Swarzędz",
            "id": "Swarzedz",
            "longitude": 17.08503,
            "latitude": 52.41289
        },
        {
            "name": "Krotoszyn",
            "id": "Krotoszyn",
            "longitude": 17.43738,
            "latitude": 51.69868
        },
        {
            "name": "Śrem",
            "id": "Srem",
            "longitude": 17.01508,
            "latitude": 52.08868
        },
        {
            "name": "Jarocin",
            "id": "Jarocin",
            "longitude": 17.50256,
            "latitude": 51.97266
        },
        {
            "name": "Wągrowiec",
            "id": "Wagrowiec",
            "longitude": 17.19961,
            "latitude": 52.80842
        },
        {
            "name": "Turek",
            "id": "Turek",
            "longitude": 18.50055,
            "latitude": 52.01548
        },
        {
            "name": "Środa Wielkopolska",
            "id": "SrodaWielkopolska",
            "longitude": 17.27617,
            "latitude": 52.22843
        },
        {
            "name": "Kościan",
            "id": "Koscian",
            "longitude": 16.64866,
            "latitude": 52.08829
        },
        {
            "name": "Gostyń",
            "id": "Gostyn",
            "longitude": 17.01225,
            "latitude": 51.88247
        },
        {
            "name": "Rawicz",
            "id": "Rawicz",
            "longitude": 16.85852,
            "latitude": 51.60946
        },
        {
            "name": "Koło",
            "id": "Kolo",
            "longitude": 18.63865,
            "latitude": 52.20024
        },
        {
            "name": "Szamotuły",
            "id": "Szamotuly",
            "longitude": 16.57794,
            "latitude": 52.61201
        },
        {
            "name": "Złotów",
            "id": "Zlotow",
            "longitude": 17.04082,
            "latitude": 53.36346
        },
        {
            "name": "Chodzież",
            "id": "Chodziez",
            "longitude": 16.9198,
            "latitude": 52.99505
        },
        {
            "name": "Oborniki",
            "id": "Oborniki",
            "longitude": 16.81406,
            "latitude": 52.64739
        },
        {
            "name": "Pleszew",
            "id": "Pleszew",
            "longitude": 17.78549,
            "latitude": 51.89636
        },
        {
            "name": "Trzcianka",
            "id": "Trzcianka",
            "longitude": 16.45629,
            "latitude": 53.04063
        },
        {
            "name": "Grodzisk Wielkopolski",
            "id": "GrodziskWielkopolski",
            "longitude": 16.36534,
            "latitude": 52.22762
        },
        {
            "name": "Mosina",
            "id": "Mosina",
            "longitude": 16.84709,
            "latitude": 52.24543
        },
        {
            "name": "Nowy Tomyśl",
            "id": "NowyTomysl",
            "longitude": 16.12844,
            "latitude": 52.3195
        },
        {
            "name": "Ostrzeszów",
            "id": "Ostrzeszow",
            "longitude": 17.93355,
            "latitude": 51.4264
        },
        {
            "name": "Kępno",
            "id": "Kepno",
            "longitude": 17.98908,
            "latitude": 51.2784
        },
        {
            "name": "Słupca",
            "id": "Slupca",
            "longitude": 17.87192,
            "latitude": 52.28733
        },
        {
            "name": "Wolsztyn",
            "id": "Wolsztyn",
            "longitude": 16.11712,
            "latitude": 52.11552
        },
        {
            "name": "Rogoźno",
            "id": "Rogozno",
            "longitude": 16.99049,
            "latitude": 52.75226
        },
        {
            "name": "Wronki",
            "id": "Wronki",
            "longitude": 16.38044,
            "latitude": 52.71051
        },
        {
            "name": "Murowana Goślina",
            "id": "MurowanaGoslina",
            "longitude": 17.00933,
            "latitude": 52.57463
        },
        {
            "name": "Międzychód",
            "id": "Miedzychod",
            "longitude": 15.89696,
            "latitude": 52.59882
        },
        {
            "name": "Czarnków",
            "id": "Czarnkow",
            "longitude": 16.56413,
            "latitude": 52.90214
        },
        {
            "name": "Kostrzyn",
            "id": "Kostrzyn",
            "longitude": 17.22811,
            "latitude": 52.39847
        },
        {
            "name": "Podbiedziska",
            "id": "Podbiedziska",
            "longitude": 17.28767,
            "latitude": 52.47753
        },
        {
            "name": "Szczecin",
            "id": "Szczecin",
            "longitude": 14.5481258,
            "latitude": 53.43276
        },
        {
            "name": "Koszalin",
            "id": "Koszalin",
            "longitude": 16.1825078,
            "latitude": 54.19
        },
        {
            "name": "Stargard",
            "id": "Stargard",
            "longitude": 15.0348295,
            "latitude": 53.33336
        },
        {
            "name": "Kołobrzeg",
            "id": "Kolobrzeg",
            "longitude": 15.5728936,
            "latitude": 54.17256
        },
        {
            "name": "Świnoujście",
            "id": "Swinoujscie",
            "longitude": 14.2475454,
            "latitude": 53.90804
        },
        {
            "name": "Szczecinek",
            "id": "Szczecinek",
            "longitude": 16.6977677,
            "latitude": 53.71072
        },
        {
            "name": "Police",
            "id": "Police",
            "longitude": 14.572063,
            "latitude": 53.55206
        },
        {
            "name": "Goleniów",
            "id": "Goleniow",
            "longitude": 14.8299979,
            "latitude": 53.56522
        },
        {
            "name": "Gryfino",
            "id": "Gryfino",
            "longitude": 14.4881375,
            "latitude": 53.25244
        },
        {
            "name": "Gryfice",
            "id": "Gryfice",
            "longitude": 15.2000949,
            "latitude": 53.91674
        },
        {
            "name": "Wałcz",
            "id": "Walcz",
            "longitude": 16.4756223,
            "latitude": 53.2736
        },
        {
            "name": "Białogard",
            "id": "Bialogard",
            "longitude": 15.9831377,
            "latitude": 54.0042
        },
        {
            "name": "Złocieniec",
            "id": "Zlocieniec",
            "longitude": 16.0121005,
            "latitude": 53.5294
        },
        {
            "name": "Drawsko Pomorskie",
            "id": "DrawskoPomorskie",
            "longitude": 15.8147639,
            "latitude": 53.52934
        },
        {
            "name": "Choszczno",
            "id": "Choszczno",
            "longitude": 15.4199744,
            "latitude": 53.16932
        },
        {
            "name": "Dębno",
            "id": "Debno",
            "longitude": 14.6980238,
            "latitude": 52.73894
        },
        {
            "name": "Świdwin",
            "id": "Swidwin",
            "longitude": 15.776667,
            "latitude": 53.774444
        },
        {
            "name": "Łobez",
            "id": "Lobez",
            "longitude": 15.6216104,
            "latitude": 53.63926
        },
        {
            "name": "Nowogard",
            "id": "Nowogard",
            "longitude": 15.119167,
            "latitude": 53.671944
        },
        {
            "name": "Pyrzyce",
            "id": "Pyrzyce",
            "longitude": 14.8924264,
            "latitude": 53.14614
        },
        {
            "name": "Barlinek",
            "id": "Barlinek",
            "longitude": 15.2167115,
            "latitude": 52.99268
        },
        {
            "name": "Czaplinek",
            "id": "Czaplinek",
            "longitude": 16.2332582,
            "latitude": 53.55828
        },
        {
            "name": "Trzebiatów",
            "id": "Trzebiatow",
            "longitude": 15.2648474,
            "latitude": 54.0615
        },
        {
            "name": "Myślibórz",
            "id": "Mysliborz",
            "longitude": 14.8681406,
            "latitude": 52.9239
        },
        {
            "name": "Wolin",
            "id": "Wolin",
            "longitude": 14.6117743,
            "latitude": 53.84584
        },
        {
            "name": "Mieszkowice",
            "id": "Mieszkowice",
            "longitude": 14.4934827,
            "latitude": 52.78546
        },
        {
            "name": "Chojna",
            "id": "Chojna",
            "longitude": 14.4273649,
            "latitude": 52.96364
        },
        {
            "name": "Sławno",
            "id": "Slawno",
            "longitude": 16.6740919,
            "latitude": 54.3626
        },
        {
            "name": "Darłowo",
            "id": "Darlowo",
            "longitude": 16.4135715,
            "latitude": 54.42018
        },
        {
            "name": "Połczyn Zdrój",
            "id": "PolczynZdroj",
            "longitude": 16.0962003,
            "latitude": 53.76432
        },
        {
            "name": "Kołbaskowo",
            "id": "Kolbaskowo",
            "longitude": 14.4378229,
            "latitude": 53.3361
        },
        {
            "name": "Mirosławiec",
            "id": "Miroslawiec",
            "longitude": 16.0883568,
            "latitude": 53.34266
        },
        {
            "name": "Bobolice",
            "id": "Bobolice",
            "longitude": 16.5878425,
            "latitude": 53.95478
        },
        {
            "name": "Kalisz Pomorski",
            "id": "KaliszPomorski",
            "longitude": 15.9058647,
            "latitude": 53.2986
        },
        {
            "name": "Kamień Pomorski",
            "id": "KamienPomorski",
            "longitude": 14.7792476,
            "latitude": 53.96882
        }
    ],
    "connections": [
        {
            "city_1": "Darlowo",
            "city_2": "Ustka",
            "road_name": "DW203",
            "road_type": "P",
            "distance": 37.7
        },
        {
            "city_1": "Slawno",
            "city_2": "Ustka",
            "road_name": "DW203",
            "road_type": "P",
            "distance": 32.5
        },